[
    {
        "name": "Centro de Atenção a Saúde Animal",
        "city": "Fortaleza",
        "state": "Ceará",
        "address": "Rua Trajano Alves de Aguiar, 156",
        "cep": "60822-345",
        "id": 1,
        "tele": "08532713320",
        "isFeatured": true,
        "isFavorite": true,
        "bairro": "Cidade dos Funcionários",
        "imageName": "casap",
        "coordinates": {
            "latitude": -3.793194458988634,
            "longitude": -38.49291751947572
        }
    },
    {
        "name": "Plantão Pet - Hospital Veterinário 24 horas",
        "city": "Fortaleza",
        "state": "Ceará",
        "address": "Av. Edilson Brasil Soares, 2183",
        "cep": "85263-000",
        "id": 2,
        "tele": "08531044435",
        "isFeatured": true,
        "isFavorite": true,
        "bairro": "Edson Queiroz",
        "imageName": "plantao",
        "coordinates": {
            "latitude": -3.7872138456064053,
            "longitude": -38.466525275617066
        }
        
    },
    {
        "name": "HGV - Clínica Veterinária",
        "city": "Fortaleza",
        "state": "Ceará",
        "address": "R. Rio da Prata, 32",
        "cep": "60832-402",
        "id": 3,
        "tele": "085981268810",
        "isFeatured": true,
        "isFavorite": true,
        "bairro": "Lagoa Redonda",
        "imageName": "hgv",
        "coordinates": {
            "latitude": -3.8079990465456426,
            "longitude": -38.46352356829797
        }
        
    },
    {
        "name": "Hospital Veterinário Popular",
        "city": "Fortaleza",
        "state": "Ceará",
        "address": "R. Prof. Mário Rocha, 75",
        "cep": "60120-200",
        "id": 4,
        "tele": "08521306499",
        "isFeatured": true,
        "isFavorite": true,
        "bairro": "Joaquim Távora",
        "imageName": "popular3",
        "coordinates": {
            "latitude": -3.7514903192255025,
            "longitude": -38.5155831756189
        }
    },
    {
        "name": "Vetclinic",
        "city": "Fortaleza",
        "state": "Ceará",
        "address": "Av. Américo Barreira, 6360",
        "cep": "60440-240",
        "id": 5,
        "tele": "08531218272",
        "isFeatured": true,
        "isFavorite": true,
        "bairro": "Parangaba",
        "imageName": "vetclinic",
        "coordinates": {
            "latitude": -3.76668455198543,
            "longitude": -38.56931797379578
        }
    },
    {
        "name": "Hospital Veterinário Univet",
        "city": "Fortaleza",
        "state": "Ceará",
        "address": "Av. Washington Soares, 655",
        "cep": "60810-000",
        "id": 6,
        "tele": "08532411997",
        "isFeatured": true,
        "isFavorite": true,
        "bairro": "Edson Queiroz",
        "imageName": "univet",
        "coordinates": {
            "latitude": -3.7582043416882667,
            "longitude": -38.48541465356138
        }
    },
    {
        "name": "Vetdoctor Hospital Veterinário",
        "city": "Fortaleza",
        "state": "Ceará",
        "address": "Av. Washington Soares, 4294 B",
        "cep": "60810-350",
        "id": 7,
        "tele": "085991393448",
        "isFeatured": true,
        "isFavorite": true,
        "bairro": "Parque Manibura",
        "imageName": "vetdoctor",
        "coordinates": {
            "latitude": -3.7941126802060254,
            "longitude": -38.4802265872894
        }
    },
    {
        "name": "IEVET - Instituto de Especialidades Veterinária",
        "city": "Fortaleza",
        "state": "Ceará",
        "address": "Av. Heráclito Graça, 1570",
        "cep": "60810-350",
        "id": 8,
        "tele": "08530774465",
        "isFeatured": true,
        "isFavorite": true,
        "bairro": "Aldeota",
        "imageName": "ievet",
        "coordinates": {
            "latitude": -3.7382068011561924,
            "longitude": -38.510929216124964
        }
    },
    {
        "name": "Hospital Veterinário Amadeu Marinho",
        "city": "Fortaleza",
        "state": "Ceará",
        "address": "R. Maria Almeida, 50",
        "cep": "60871-472",
        "id": 9,
        "tele": "08532763035",
        "isFeatured": true,
        "isFavorite": true,
        "bairro": "Messejana",
        "imageName": "hospvam",
        "coordinates": {
            "latitude": -3.837491120735821,
            "longitude": -38.483335085441105
        }
    },
    {
        "name": "Cinvet",
        "city": "Fortaleza",
        "state": "Ceará",
        "address": "R. Dr. Gilberto Studart, 800",
        "cep": "60192-105",
        "id": 10,
        "tele": "08530856561",
        "isFeatured": true,
        "isFavorite": true,
        "bairro": "Cocó",
        "imageName": "cinvet",
        "coordinates": {
            "latitude": -3.7434890487106793,
            "longitude": -38.48125194496047
        }
    }
]
